City_ID,City,Country,Lat,Lng,Max Temp,Humidity,Cloudiness,Wind Speed
0,Ruwi,OM,23.6,58.55,68.0,72,0,3.36
1,Naryan-Mar,RU,67.67,53.09,14.59,96,0,8.57
2,Bredasdorp,ZA,-34.53,20.04,60.8,87,100,10.29
3,Castro,BR,-24.79,-50.01,61.16,97,2,6.15
4,Albany,US,42.6,-73.97,41.0,69,2,2.08
5,Mahebourg,MU,-20.41,57.7,73.4,78,75,16.11
6,Buala,SB,-8.14,159.59,84.29,73,76,1.63
7,Vestmannaeyjar,IS,63.44,-20.27,44.17,73,0,2.35
8,Grindavik,IS,63.84,-22.43,41.0,86,0,10.29
9,Kununurra,AU,-15.77,128.73,91.4,52,100,6.93
10,Chegdomyn,RU,51.12,133.02,37.62,73,0,1.92
11,Kenora,CA,49.82,-94.43,21.2,85,90,5.82
12,Oriximina,BR,-1.77,-55.87,80.67,70,1,2.84
13,Paamiut,GL,61.99,-49.67,35.71,88,100,9.26
14,Asosa,ET,10.07,34.53,63.41,82,0,4.65
15,New Norfolk,AU,-42.78,147.06,61.0,35,0,4.0
16,Asau,RO,46.43,26.4,53.01,98,99,1.61
17,Ushuaia,AR,-54.8,-68.3,48.2,66,20,4.7
18,Dingle,PH,11.0,122.67,77.88,88,100,16.75
19,Hasaki,JP,35.73,140.83,68.0,59,75,5.82
20,Yellowknife,CA,62.46,-114.35,28.0,79,75,6.93
21,Itarema,BR,-2.92,-39.92,79.79,80,0,15.5
22,San Cristobal,VE,7.77,-72.22,78.8,83,40,4.7
23,Rikitea,PF,-23.12,-134.97,73.72,82,100,25.7
24,Arlit,NE,18.74,7.39,75.31,18,0,7.81
25,Vostok,RU,46.49,135.88,38.71,81,43,2.68
26,Kavieng,PG,-2.57,150.8,82.58,77,100,10.33
27,Sao Joao Da Barra,BR,-21.64,-41.05,71.28,87,71,9.91
28,Khatanga,RU,71.97,102.5,5.94,95,95,9.8
29,Avarua,CK,-21.21,-159.78,77.0,69,69,17.22
30,Sitka,US,57.05,-135.33,41.0,86,90,13.87
31,Namibe,AO,-15.2,12.15,67.75,82,16,7.52
32,Barrow,US,71.29,-156.79,24.8,73,90,10.29
33,Leningradskiy,RU,69.38,178.42,25.29,94,96,6.22
34,Saint-Augustin,CA,51.23,-58.65,31.69,84,0,12.08
35,Airai,TL,-8.93,125.41,75.81,61,80,1.12
36,Mount Gambier,AU,-37.83,140.77,62.6,51,75,19.46
37,Pangnirtung,CA,66.15,-65.71,12.18,85,35,4.45
38,Santa Vitoria,BR,-18.84,-50.12,75.25,81,91,6.11
39,Jiwani,PK,25.05,61.74,75.74,27,0,6.67
40,Lompoc,US,34.64,-120.46,60.8,82,90,11.41
41,Darnah,LY,32.77,22.64,71.17,78,100,14.63
42,Ponta Do Sol,PT,32.67,-17.1,66.2,68,20,5.82
43,Luanda,AO,-8.84,13.23,75.2,94,75,4.7
44,Hecelchakan,MX,20.17,-90.13,82.4,78,40,20.8
45,Raudeberg,NO,61.99,5.14,48.0,79,100,21.47
46,Saint George,US,37.1,-113.58,51.01,39,72,19.46
47,Hermanus,ZA,-34.42,19.23,61.0,89,99,4.0
48,Mataura,NZ,-46.19,168.86,54.0,55,99,5.99
49,Ilulissat,GL,69.22,-51.1,15.8,52,100,3.36
50,Oudtshoorn,ZA,-33.59,22.2,60.8,100,100,3.36
51,Kodiak,US,57.79,-152.41,48.2,87,90,5.82
52,Kapaa,US,22.08,-159.32,82.4,74,40,9.17
53,Vaini,TO,-21.2,-175.2,73.4,94,90,13.87
54,Ostrovnoy,RU,68.05,39.51,30.0,95,100,7.31
55,Junin,AR,-34.58,-60.94,57.99,49,4,8.43
56,Punta Arenas,CL,-53.15,-70.92,44.6,81,75,3.36
57,Port Hardy,CA,50.7,-127.42,42.8,70,90,3.36
58,La Palma,US,33.85,-118.05,66.99,55,75,9.17
59,East London,ZA,-33.02,27.91,65.79,73,89,1.01
60,Upernavik,GL,72.79,-56.15,13.89,77,65,5.1
61,Haines Junction,CA,60.75,-137.51,28.06,94,100,3.74
62,Mayor Pablo Lagerenza,PY,-19.93,-60.77,89.35,46,1,8.46
63,Busselton,AU,-33.65,115.33,73.99,46,0,12.46
64,Berlevag,NO,70.86,29.09,33.64,89,100,22.84
65,Jacksonville,US,30.33,-81.66,75.99,94,75,5.82
66,Cap Malheureux,MU,-19.98,57.61,73.99,75,49,7.0
67,Ishigaki,JP,24.34,124.16,77.0,69,20,16.11
68,Qaanaaq,GL,77.48,-69.36,9.01,76,88,8.37
69,Henderson,US,36.04,-114.98,72.0,9,20,24.16
70,Severo-Kurilsk,RU,50.68,156.12,46.47,80,100,7.11
71,Atuona,PF,-9.8,-139.03,79.07,73,0,19.82
72,Thenzawl,IN,23.32,92.75,71.6,94,20,4.7
73,Puerto Ayora,EC,-0.74,-90.35,68.0,85,43,3.0
74,Torbay,CA,47.67,-52.73,39.99,74,70,1.99
75,Yakeshi,CN,49.28,120.73,33.04,91,100,5.32
76,Dikson,RU,73.51,80.55,20.14,98,100,11.16
77,Bluff,NZ,-46.6,168.33,54.0,55,73,5.99
78,Cabedelo,BR,-6.98,-34.83,77.0,88,0,4.7
79,Moron,AR,-34.65,-58.62,66.0,99,53,1.01
80,Pevek,RU,69.7,170.31,25.45,98,100,6.4
81,Cabo San Lucas,MX,22.89,-109.91,87.8,62,40,8.05
82,Pasni,PK,25.26,63.47,75.27,35,0,9.53
83,Northam,GB,51.03,-4.22,50.0,83,98,13.0
84,Los Chiles,CR,11.03,-84.72,76.89,89,97,2.68
85,Punta De Bombon,PE,-17.17,-71.79,63.07,76,45,4.5
86,Victoria,HK,22.29,114.16,77.0,76,100,1.01
87,Acarau,BR,-2.89,-40.12,79.84,79,0,17.16
88,Najran,SA,17.49,44.13,57.2,20,0,1.59
89,Smoky Lake,CA,54.12,-112.47,20.88,87,0,7.92
90,Black River,JM,18.03,-77.85,80.01,88,20,6.93
91,Saint-Louis,SN,16.33,-15.0,80.6,51,0,9.19
92,Hithadhoo,MV,-0.6,73.08,83.71,65,19,5.93
93,Reutte,AT,47.48,10.72,42.01,90,100,1.99
94,Ozinki,RU,51.18,49.68,38.86,76,0,17.65
95,Jamestown,US,42.1,-79.24,45.0,70,90,5.82
96,Katsuura,JP,35.13,140.3,66.0,55,75,3.36
97,Adrar,MR,20.5,-10.07,86.58,13,57,8.32
98,Cayenne,GF,4.93,-52.33,78.8,94,40,9.66
99,Tiksi,RU,71.69,128.87,5.34,90,100,31.03
100,Talnakh,RU,69.49,88.4,10.4,92,75,13.42
101,Lagoa,PT,39.05,-27.98,64.51,71,100,7.81
102,Tautira,PF,-17.73,-149.15,84.2,70,40,5.82
103,Chalmette,US,29.94,-89.96,71.01,100,1,4.23
104,Cape Town,ZA,-33.93,18.42,61.0,77,0,11.41
105,Dali,CN,25.7,100.18,60.17,86,72,0.72
106,Ancud,CL,-41.87,-73.82,50.0,81,90,10.29
107,Barra Patuca,HN,15.8,-84.28,78.3,88,100,10.45
108,Tuktoyaktuk,CA,69.45,-133.04,17.6,85,90,19.46
109,Namatanai,PG,-3.67,152.43,82.38,76,100,8.28
110,Los Llanos De Aridane,ES,28.66,-17.92,69.8,64,21,11.41
111,Chokurdakh,RU,70.63,147.92,6.15,92,0,9.69
112,Tuy Hoa,VN,13.08,109.3,78.51,84,52,4.43
113,Georgetown,MY,5.41,100.34,78.8,88,40,7.16
114,Beamsville,CA,43.17,-79.48,43.0,71,100,16.73
115,Susaki,JP,33.37,133.28,68.0,49,20,8.05
116,Caravelas,BR,-17.71,-39.25,72.07,97,100,9.44
117,Lebu,CL,-37.62,-73.65,47.89,77,10,4.05
118,Beloha,MG,-25.17,45.05,67.17,79,91,4.65
119,Byron Bay,AU,-28.65,153.62,73.99,78,90,9.17
120,Port Hedland,AU,-20.32,118.57,82.4,58,0,8.05
121,Mbandaka,CD,0.05,18.26,71.69,97,100,2.15
122,Coahuayana,MX,18.73,-103.68,75.2,83,40,6.93
123,Korla,CN,41.76,86.15,43.0,69,5,3.49
124,Zaozerne,UA,45.16,33.28,63.45,63,100,13.04
125,Weligama,LK,5.97,80.42,77.83,86,7,5.97
126,Puri,IN,19.8,85.85,75.2,100,20,2.24
127,Saint-Philippe,RE,-21.36,55.77,73.4,72,0,3.36
128,Maniitsoq,GL,65.42,-52.9,28.13,79,100,8.28
129,Verkhnyaya Inta,RU,65.98,60.31,16.81,93,74,8.75
130,Provideniya,RU,64.38,-173.3,35.6,74,90,6.71
131,Samarai,PG,-10.62,150.67,83.03,75,78,7.54
132,Saskylakh,RU,71.92,114.08,8.24,94,100,10.22
133,Mutoko,ZW,-17.4,32.23,64.58,60,0,10.69
134,Tasiilaq,GL,65.61,-37.64,33.8,59,100,19.46
135,Waingapu,ID,-9.66,120.26,85.96,58,100,1.68
136,Bayan,CN,46.08,127.4,43.03,64,24,3.49
137,Yenagoa,NG,4.92,6.26,75.36,92,100,0.34
138,Chicama,PE,-7.84,-79.15,64.15,82,100,5.95
139,Hambantota,LK,6.12,81.12,73.4,100,20,1.12
140,Imbituba,BR,-28.24,-48.67,71.6,94,75,5.82
141,Vila,PT,42.03,-8.16,44.01,95,100,3.38
142,Sabha,LY,27.04,14.43,67.17,38,0,10.04
143,Innisfail,AU,-17.53,146.03,83.3,67,0,8.01
144,Salalah,OM,17.02,54.09,75.2,64,0,2.24
145,Port Alfred,ZA,-33.59,26.89,65.08,85,100,6.91
146,Praia Da Vitoria,PT,38.73,-27.07,64.0,82,75,3.31
147,Punta Umbria,ES,37.18,-6.97,59.0,83,71,5.01
148,Haibara,JP,34.53,135.95,66.99,55,20,2.24
149,Pathein,MM,16.78,94.73,77.95,87,20,0.96
150,Zhigansk,RU,66.77,123.37,-1.5,89,65,5.28
151,Luderitz,NA,-26.65,15.16,64.31,56,0,22.1
152,Kemin,KG,42.78,75.69,43.66,59,0,7.49
153,Teya,RU,60.38,92.63,19.2,94,100,2.89
154,Laguna,US,38.42,-121.42,68.0,14,1,14.99
155,Lavrentiya,RU,65.58,-171.0,33.64,88,88,7.52
156,Touros,BR,-5.2,-35.46,78.8,83,40,5.82
157,Nikolskoye,RU,59.7,30.79,42.8,93,90,6.71
158,Gora,PL,51.67,16.53,48.0,98,100,9.8
159,Fare,PF,-16.7,-151.02,80.33,71,0,5.48
160,Sambava,MG,-14.27,50.17,69.82,84,0,9.46
161,Ahipara,NZ,-35.17,173.17,69.66,62,2,6.31
162,San Patricio,US,28.02,-97.52,78.8,83,40,18.34
163,Margate,GB,51.38,1.39,51.01,66,98,5.01
164,Clyde River,CA,70.47,-68.59,14.0,85,1,8.05
165,Bambous Virieux,MU,-20.34,57.76,73.99,78,75,16.11
166,Norman Wells,CA,65.28,-126.83,30.2,100,90,9.17
167,Hobart,AU,-42.88,147.33,60.01,47,40,14.99
168,Okhotsk,RU,59.38,143.3,33.8,80,18,24.25
169,Yang Talat,TH,16.4,103.37,69.8,100,75,4.7
170,Hilo,US,19.73,-155.09,87.8,55,20,17.22
171,Thompson,CA,55.74,-97.86,23.0,67,90,3.36
172,Nyurba,RU,63.28,118.33,15.89,87,100,9.51
173,Mayo,US,38.89,-76.51,53.01,93,90,5.82
174,Mingyue,CN,43.11,128.92,48.65,51,0,3.18
175,Pierre,US,44.37,-100.35,15.8,72,1,10.29
176,Longyearbyen,SJ,78.22,15.64,28.4,79,75,4.7
177,Nantucket,US,41.28,-70.1,50.0,71,90,10.29
178,Guerrero Negro,MX,27.98,-114.06,68.99,71,77,17.6
179,The Valley,AI,18.22,-63.06,82.99,78,20,13.87
180,Puerto Del Rosario,ES,28.5,-13.86,69.8,73,40,19.46
181,Maningrida,AU,-12.07,134.27,89.64,53,100,7.45
182,Cherskiy,RU,68.75,161.3,16.66,96,100,1.34
183,Awbari,LY,26.59,12.78,65.79,39,0,5.66
184,Petropavlovka,RU,50.61,105.32,24.66,79,0,3.58
185,Butaritari,KI,3.07,172.79,81.41,69,33,8.34
186,Lere,NG,10.39,8.57,70.52,36,27,3.09
187,Manaus,BR,-3.1,-60.02,84.2,70,20,5.82
188,Port Elizabeth,ZA,-33.92,25.57,62.6,93,75,13.87
189,Camacha,PT,33.08,-16.33,68.0,77,40,10.29
190,Saldanha,ZA,-33.01,17.94,55.4,82,0,4.7
191,Wanaka,NZ,-44.7,169.15,50.36,79,100,5.35
192,Tomatlan,MX,19.93,-105.25,79.0,92,40,3.78
193,Arraial Do Cabo,BR,-22.97,-42.03,72.45,85,96,7.16
194,Derby,GB,52.92,-1.48,42.8,93,0,13.87
195,Hami,CN,42.8,93.45,41.31,59,91,5.14
196,Verkhniy Baskunchak,RU,48.23,46.72,46.54,80,0,11.83
197,Price,US,39.6,-110.81,26.6,49,90,23.04
198,Pitimbu,BR,-7.47,-34.81,77.0,88,20,4.7
199,Mhango,TZ,-3.28,32.85,71.29,70,100,4.81
200,Fortuna,US,40.6,-124.16,55.99,58,1,3.36
201,Flin Flon,CA,54.77,-101.86,22.05,91,0,5.21
202,Fairview,US,40.81,-74.0,53.6,76,90,7.05
203,Yulara,AU,-25.24,130.99,68.0,24,0,18.34
204,Chuy,UY,-33.7,-53.46,66.61,89,100,11.63
205,Beyla,GN,8.68,-8.63,67.93,67,91,1.39
206,Alofi,NU,-19.06,-169.92,78.8,78,90,14.99
207,Lamu,KE,-2.27,40.9,77.0,88,40,10.87
208,Saint Anthony,US,45.02,-93.22,28.4,68,90,5.82
209,Portland,US,45.52,-122.68,44.01,36,0,1.99
210,Haverfordwest,GB,51.8,-4.97,51.8,81,99,26.4
211,Gao,ML,16.64,1.64,77.77,16,0,10.71
212,Nanortalik,GL,60.14,-45.24,34.61,89,100,10.42
213,San Lawrenz,MT,36.06,14.2,66.0,77,0,8.05
214,Nijar,ES,36.97,-2.21,64.4,77,0,17.22
215,Kruisfontein,ZA,-34.0,24.73,62.01,95,100,8.01
216,Fairbanks,US,64.84,-147.72,33.01,86,1,3.85
217,Safaga,EG,26.73,33.94,75.2,50,0,11.41
218,Darhan,MN,49.49,105.92,25.63,84,95,2.75
219,Beringovskiy,RU,63.05,179.32,31.23,91,0,1.92
220,Nha Trang,VN,12.25,109.18,86.0,74,36,2.24
221,Plettenberg Bay,ZA,-34.05,23.37,62.47,90,100,12.77
222,Waipawa,NZ,-41.41,175.52,66.2,77,100,25.28
223,Puerto Baquerizo Moreno,EC,-0.9,-89.6,66.72,82,36,12.21
224,Broome,US,42.25,-75.83,46.99,56,75,6.93
225,Taoudenni,ML,22.68,-3.98,84.9,14,47,8.81
226,Simpang,ID,-1.27,104.08,71.46,95,100,2.42
227,Flinders,AU,-34.58,150.86,59.0,62,75,19.46
228,Samur,RU,41.83,48.49,64.99,33,40,5.12
229,High Rock,BS,26.62,-78.28,78.8,100,90,6.93
230,Kirakira,SB,-10.45,161.92,84.72,75,100,8.1
231,Gazli,UZ,40.13,63.45,47.66,51,0,6.4
232,Kuruman,ZA,-27.45,23.43,68.0,55,43,11.16
233,Kazerun,IR,29.62,51.65,56.17,54,0,1.83
234,Axim,GH,4.87,-2.24,77.47,91,50,7.99
235,Bereda,ES,43.27,-7.54,45.0,99,100,5.99
236,Mende,FR,44.67,3.5,38.37,100,100,0.85
237,Narsaq,GL,60.92,-46.05,42.8,41,100,10.29
238,Umba,RU,66.69,34.34,27.46,95,100,7.63
239,Hofn,IS,64.25,-15.21,42.26,79,100,9.82
240,Dickinson,US,29.46,-95.05,75.2,83,90,6.93
241,Irece,BR,-11.3,-41.86,76.37,64,92,3.0
242,Dunedin,NZ,-45.87,170.5,48.0,82,100,10.0
243,Yerbogachen,RU,61.28,108.01,23.14,95,100,5.08
244,Porbandar,IN,21.64,69.61,80.62,56,0,7.67
245,Union,US,40.63,-74.27,51.8,76,90,10.29
246,Peace River,CA,56.25,-117.29,28.4,50,75,8.05
247,Bethel,US,41.37,-73.41,48.2,61,90,8.05
248,Temir,KZ,49.14,57.13,51.85,80,30,20.83
249,Baghdad,IQ,33.34,44.4,59.0,44,0,4.7
250,Umm Kaddadah,SD,13.6,26.69,77.81,23,0,13.89
251,Krasnoselkup,RU,65.7,82.47,2.88,93,0,9.86
252,Kavaratti,IN,10.57,72.64,81.43,74,41,1.95
253,Geraldton,AU,-28.77,114.6,73.4,60,0,14.99
254,Puerto Ayacucho,VE,5.66,-67.62,75.52,85,0,1.77
255,Methoni,GR,36.82,21.7,62.01,93,20,16.37
256,Rawson,AR,-43.3,-65.1,59.5,34,27,7.38
257,Ust-Maya,RU,60.42,134.53,11.82,92,0,1.99
258,Loa Janan,ID,-0.58,117.09,79.05,87,100,4.54
259,Benghazi,LY,32.12,20.07,72.0,71,100,6.89
260,Juneau,US,58.3,-134.42,34.0,91,90,5.82
261,Prado,BR,-17.34,-39.22,72.79,96,100,13.87
262,Carnarvon,AU,-24.87,113.63,71.6,83,40,18.34
263,Comodoro Rivadavia,AR,-45.87,-67.5,59.0,33,0,12.75
264,Buraydah,SA,26.33,43.98,59.0,33,0,6.4
265,Kaitangata,NZ,-46.28,169.85,53.01,61,100,4.0
266,Port Lincoln,AU,-34.73,135.87,56.07,57,91,18.37
267,Mogadishu,SO,2.04,45.34,79.63,83,99,8.88
268,Glasgow,GB,55.87,-4.26,48.2,87,79,16.11
269,Skjervoy,NO,70.03,20.97,38.79,74,100,29.59
270,Souillac,MU,-20.52,57.52,73.4,78,75,16.11
271,Padang,ID,-0.95,100.35,80.53,67,100,1.59
272,Goroka,PG,-6.08,145.39,73.27,71,68,2.86
273,Husavik,IS,66.04,-17.34,39.2,86,90,4.7
274,Gorontalo,ID,0.54,123.06,88.16,58,62,2.93
275,Ridgecrest,US,35.62,-117.67,68.0,37,0,7.0
276,Cascais,PT,38.7,-9.42,59.0,83,100,20.04
277,Lorengau,PG,-2.02,147.27,84.9,73,100,5.7
278,Ciudad Bolivar,VE,8.12,-63.55,79.12,81,100,10.25
279,Colomi,BO,-17.35,-65.87,69.8,35,75,3.36
280,West Wendover,US,40.74,-114.07,32.0,64,40,13.87
281,Srednekolymsk,RU,67.45,153.68,16.11,91,0,1.41
282,Todos Santos,MX,23.45,-110.22,80.01,80,1,3.0
283,Maceio,BR,-9.67,-35.74,75.2,94,40,5.82
284,Rewa,IN,24.53,81.3,70.79,54,0,2.42
285,Nortelandia,BR,-14.45,-56.8,77.36,71,71,4.36
286,Rantepao,ID,-2.97,119.9,78.33,69,99,2.62
287,Izumo,JP,35.37,132.77,60.8,72,20,2.24
288,Quang Ngai,VN,15.12,108.8,76.41,90,100,2.89
289,Kajaani,FI,64.23,27.73,33.8,100,90,13.87
290,Belaya Gora,RU,68.53,146.42,12.29,93,58,6.15
291,Iqaluit,CA,63.75,-68.51,15.01,85,90,8.05
292,Khani,GE,41.96,42.96,50.0,76,0,9.17
293,Soria,ES,41.67,-2.67,39.99,85,16,1.01
294,Greenlaw,GB,55.71,-2.46,45.0,93,100,5.99
295,Tamale,GH,9.4,-0.84,78.22,57,0,3.56
296,Tura,IN,25.52,90.22,71.24,94,0,1.43
297,Petropavlovsk-Kamchatskiy,RU,53.05,158.65,42.8,100,75,6.71
298,Isangel,VU,-19.55,169.27,82.4,65,75,6.93
299,Kepno,PL,51.28,17.99,53.01,80,0,8.19
300,Labrea,BR,-7.26,-64.8,74.14,95,22,2.26
301,Harvard,US,42.42,-88.61,37.0,90,100,10.38
302,Huarmey,PE,-10.07,-78.15,63.07,85,96,9.42
303,Avera,US,33.19,-82.53,71.6,100,75,4.7
304,Chudniv,UA,50.05,28.12,49.91,79,100,9.66
305,Makubetsu,JP,45.37,141.82,50.0,81,75,17.22
306,Vetluzhskiy,RU,58.39,45.47,31.71,97,34,7.7
307,Meulaboh,ID,4.14,96.13,77.13,84,100,4.61
308,Bilibino,RU,68.05,166.44,20.66,94,100,0.85
309,Biak,ID,-0.91,122.88,84.0,64,39,3.69
310,Sao Filipe,CV,14.9,-24.5,82.02,65,100,12.28
311,Puerto Gaitan,CO,4.31,-72.08,79.84,79,69,5.12
312,Dawson Creek,CA,55.77,-120.24,32.0,87,1,6.93
313,Sabang,ID,5.89,95.32,82.45,74,97,17.81
314,Coihaique,CL,-45.58,-72.07,46.4,65,20,4.7
315,Nelson Bay,AU,-32.72,152.15,62.01,100,90,27.51
316,North Augusta,US,33.5,-81.97,73.4,83,90,5.82
317,Tartus,SY,34.89,35.89,70.0,55,0,4.7
318,Puerto Quijarro,BO,-17.78,-57.77,80.98,63,0,1.99
319,Meadow Lake,US,34.8,-106.54,70.0,21,75,17.22
320,Xining,CN,36.62,101.77,39.25,58,100,2.84
321,Anloga,GH,5.79,0.9,77.0,88,20,10.29
322,Yar-Sale,RU,66.83,70.83,11.26,96,53,10.13
323,Kachiry,KZ,53.07,76.1,42.82,81,100,13.2
324,Port Augusta,AU,-32.5,137.77,59.0,47,40,12.75
325,Iisalmi,FI,63.56,27.19,39.2,93,90,10.29
326,Ixtapa,MX,20.7,-105.2,86.0,74,75,3.36
327,Smithers,CA,54.78,-127.17,23.0,92,90,3.36
328,Hamilton,US,39.18,-84.53,53.6,66,90,5.82
329,Ketchikan,US,55.34,-131.65,37.4,100,90,28.86
330,Santa Cruz,BO,-17.8,-63.17,84.2,66,60,13.87
331,Tottori,JP,35.5,134.23,64.4,59,20,3.36
332,Howard Springs,AU,-12.5,131.05,89.6,59,40,3.36
333,Mar Del Plata,AR,-38.0,-57.56,60.8,100,90,5.99
334,Roswell,US,34.02,-84.36,69.01,94,40,6.62
335,Pontianak,ID,-0.03,109.33,82.87,74,96,4.59
336,Gamba,GA,-2.65,10.0,76.32,89,100,8.61
337,Brownsville,US,25.9,-97.5,80.6,78,75,11.41
338,Kinkala,CG,-4.36,14.76,71.78,94,100,3.65
339,Khasan,RU,42.43,130.64,50.72,53,0,7.34
340,Clonakilty,IE,51.62,-8.87,45.0,93,40,11.41
341,Yarmouth,US,41.71,-70.23,48.99,75,75,4.7
342,Vao,NC,-22.67,167.48,72.97,81,0,12.39
343,Revda,RU,56.8,59.93,33.8,100,90,6.71
344,Chapais,CA,49.78,-74.85,26.6,79,90,1.79
345,Graham,US,47.05,-122.29,45.0,70,1,3.2
346,Codrington,AU,-38.27,141.97,57.27,63,4,20.09
347,Elat,IL,29.56,34.95,77.0,73,0,3.94
348,Trinidad,BO,-14.83,-64.9,82.35,69,34,4.38
349,Pimentel,PE,-6.84,-79.93,62.85,88,93,13.33
350,Senhor Do Bonfim,BR,-10.46,-40.19,76.08,62,86,3.98
351,Port Blair,IN,11.67,92.75,79.83,82,100,5.01
352,Machinga,MW,-15.17,35.3,70.14,68,28,4.03
353,Ouallam,NE,14.32,2.09,82.51,14,85,7.47
354,Verkhnyaya Maksakovka,RU,61.63,50.97,28.4,92,75,4.47
355,China,MX,25.7,-99.23,81.81,68,0,19.91
356,Thunder Bay,CA,48.4,-89.32,30.0,86,90,4.7
357,Ngunguru,NZ,-35.62,174.5,65.28,70,0,9.08
358,Gat,IL,31.61,34.76,73.0,79,0,1.21
359,Rocha,UY,-34.48,-54.33,66.02,96,100,5.03
360,Sistranda,NO,63.73,8.83,44.6,87,0,16.11
361,Anchorage,US,61.22,-149.9,37.4,86,90,4.7
362,Marzuq,YE,14.4,46.47,60.93,32,0,1.68
363,Banda Aceh,ID,5.56,95.32,81.52,71,100,11.7
364,Birao,CF,10.28,22.79,74.03,43,0,2.08
365,Havre-Saint-Pierre,CA,50.23,-63.6,32.0,78,1,10.29
366,Merauke,ID,-8.47,140.33,85.6,60,44,8.16
367,Fort Nelson,CA,58.81,-122.7,28.4,54,90,3.36
368,Coos Bay,US,43.37,-124.22,55.0,34,1,9.17
369,Yuncheng,CN,35.02,110.99,65.5,37,60,9.31
370,Zaysan,KZ,47.47,84.87,30.56,85,8,1.12
371,Wanning,CN,18.8,110.4,78.13,89,100,14.83
372,Ust-Tarka,RU,55.57,75.7,37.17,98,100,6.13
373,La Ronge,CA,55.1,-105.28,23.0,57,20,5.82
374,Rabo De Peixe,PT,37.8,-25.58,57.2,82,20,4.7
375,Tilichiki,RU,60.47,166.1,33.55,92,100,4.59
376,Garelochhead,GB,56.08,-4.83,48.99,87,100,16.11
377,Vila Velha,BR,-20.33,-40.29,71.6,94,75,3.36
378,Kultayevo,RU,57.89,55.94,32.0,96,90,4.47
379,Lavumisa,SZ,-27.31,31.89,69.13,77,94,5.28
380,Pochutla,MX,15.74,-96.47,81.0,78,40,3.83
381,Ejido,VE,8.55,-71.24,67.93,67,42,3.15
382,Port Maria,JM,18.37,-76.89,75.0,97,100,1.99
383,Bilma,NE,18.69,12.92,70.2,24,0,10.07
384,Aklavik,CA,68.22,-135.01,19.4,85,90,10.29
385,Mata,PT,40.68,-7.46,46.99,90,52,3.0
386,Mednogorsk,RU,51.41,57.59,48.52,89,100,11.12
387,Leh,IN,34.17,77.58,25.97,81,100,2.98
388,Dori,BF,14.04,-0.03,80.37,16,23,5.1
389,Talcahuano,CL,-36.72,-73.12,53.6,71,0,11.41
390,High Prairie,CA,55.43,-116.49,24.35,88,99,7.76
391,Harper,LR,4.38,-7.72,77.67,89,8,6.42
392,Poum,NC,-20.23,164.02,77.22,72,0,13.96
393,Nizwa,OM,22.93,57.53,61.75,35,0,2.53
394,Hokitika,NZ,-42.72,170.97,59.38,97,100,10.2
395,Ribeira Grande,PT,38.52,-28.7,65.57,77,100,8.61
396,Cidreira,BR,-30.18,-50.21,69.62,87,100,25.55
397,Surt,LY,31.21,16.59,71.19,71,88,8.41
398,Sohag,EG,26.56,31.69,64.4,59,0,4.7
399,Jaleswar,NP,26.65,85.8,72.52,91,0,2.73
400,Dongargaon,IN,20.97,80.85,68.7,70,0,1.79
401,Riviere-Au-Renard,CA,49.0,-64.4,28.4,63,5,3.36
402,Goderich,CA,43.75,-81.72,43.0,74,100,16.51
403,Redlands,US,34.06,-117.18,64.4,52,75,6.93
404,Ankang,CN,32.68,109.02,62.01,34,79,11.01
405,Vardo,NO,70.37,31.11,35.98,82,100,19.75
406,Kulhudhuffushi,MV,6.62,73.07,81.97,77,87,8.93
407,Pangai,TO,-19.8,-174.35,77.0,88,75,20.8
408,Valleyview,CA,55.07,-117.29,26.96,82,97,9.44
409,Pandrup,DK,57.22,9.68,48.99,95,18,3.0
410,Rucheng,CN,32.39,120.56,69.01,70,46,1.99
411,La Sarre,CA,48.8,-79.2,25.95,97,100,3.24
412,Terrasini,IT,38.15,13.08,62.6,72,0,6.93
413,Dongsheng,CN,39.82,109.98,44.67,53,0,14.43
414,Noumea,NC,-22.28,166.46,91.4,38,0,12.75
415,Camargo,MX,27.67,-105.17,78.4,22,0,14.72
416,Kiama,AU,-34.68,150.87,59.0,62,75,19.46
417,Tres Arroyos,AR,-38.37,-60.28,47.35,85,52,7.18
418,Tarrega,ES,41.65,1.14,55.99,79,100,1.01
419,Camana,PE,-16.62,-72.71,62.1,76,5,5.26
420,Visp,CH,46.29,7.88,52.0,77,76,1.01
421,Orocue,CO,4.79,-71.34,78.31,84,60,4.7
422,Chateaubelair,VC,13.28,-61.25,82.4,78,20,19.46
423,Turukhansk,RU,65.82,87.98,1.51,91,0,6.64
424,Ponta Delgada,PT,37.73,-25.67,57.2,82,20,5.82
425,Taltal,CL,-25.4,-70.48,59.94,55,0,5.73
426,Kurilsk,RU,45.23,147.88,49.26,75,66,18.57
427,Gurmatkal,IN,16.87,77.4,71.55,83,6,2.66
428,Monteagudo,BO,-19.82,-63.98,75.9,63,94,0.45
429,Vagur,FO,61.47,-6.81,48.54,83,100,18.79
430,Rundu,NA,-17.93,19.77,71.29,27,56,4.45
431,Faanui,PF,-16.48,-151.75,79.86,73,0,7.16
432,Ola,RU,59.58,151.28,38.08,73,100,15.43
433,Ust-Kulom,RU,61.69,53.69,25.11,98,93,4.14
434,Sisimiut,GL,66.94,-53.67,20.8,86,100,9.28
435,Casper,US,42.87,-106.31,6.01,77,75,9.17
436,Iwanai,JP,42.97,140.51,51.76,66,51,5.53
437,Ayorou,NE,14.73,0.92,83.48,13,86,7.63
438,Roald,NO,62.58,6.13,50.0,61,94,10.29
439,Penzance,GB,50.12,-5.54,51.8,71,96,20.8
440,Tabas,IR,33.6,56.92,51.8,27,0,2.24
441,Valencia,ES,39.33,-0.83,64.99,70,100,3.0
442,Bubaque,GW,11.28,-15.83,83.39,80,0,11.43
443,Prince Rupert,CA,54.32,-130.32,37.4,93,90,10.29
444,Karratha,AU,-20.74,116.85,80.19,43,67,11.81
445,Loreto,MX,22.27,-101.97,68.49,25,0,8.68
446,Altay,CN,47.87,88.12,25.3,70,32,1.83
447,Suntar,RU,62.14,117.63,19.51,94,100,11.14
448,Port Macquarie,AU,-31.43,152.92,80.01,50,16,1.99
449,Hagenow,DE,53.43,11.18,51.01,96,100,1.99
450,Havelock,US,34.88,-76.9,69.01,94,25,8.19
451,Chimbote,PE,-9.09,-78.58,62.26,88,99,8.61
452,Debre Tabor,ET,11.85,38.02,49.26,55,0,5.1
453,Denpasar,ID,-8.65,115.22,86.0,74,40,3.36
454,Vitim,RU,59.45,112.56,27.01,96,100,7.85
455,Melbu,NO,68.5,14.83,41.0,86,75,10.29
456,Ambilobe,MG,-13.2,49.05,68.47,76,0,4.32
457,Columbus,US,39.96,-83.0,48.99,76,90,9.17
458,Conakry,GN,9.54,-13.68,80.35,86,3,6.02
459,Killarney,IE,52.05,-9.52,49.1,85,100,16.8
460,Hervey Bay,AU,-25.3,152.85,84.99,54,75,12.75
461,Levokumskoye,RU,44.82,44.66,54.28,79,98,7.63
462,Sola,VU,-13.88,167.55,84.2,79,75,4.7
463,Muli,MV,2.92,73.57,81.99,77,89,8.48
464,Bandarbeyla,SO,9.49,50.81,74.35,82,75,9.53
465,Jorpeland,NO,59.02,6.04,48.2,87,75,8.05
466,Necochea,AR,-38.55,-58.74,54.0,88,100,14.0
467,Le Port,RE,-20.94,55.29,73.4,69,40,16.11
468,Tabuk,PH,17.42,121.44,78.91,87,100,5.46
469,Sept-Iles,CA,50.2,-66.38,32.0,50,5,8.05
470,Montlucon,FR,46.33,2.6,46.99,95,100,8.75
471,Sao Miguel Do Araguaia,BR,-13.28,-50.16,76.66,64,9,4.81
472,Tukrah,LY,32.53,20.58,70.09,75,100,5.41
473,Bengkulu,ID,-3.8,102.27,76.24,84,100,4.9
474,Baykit,RU,61.67,96.37,15.73,94,100,2.17
475,Jacareacanga,BR,-6.22,-57.75,78.01,69,0,1.66
476,Novyy Urengoy,RU,66.08,76.63,6.87,95,7,9.46
477,Bouna,CI,9.27,-3.0,74.5,58,31,3.36
478,Sinnamary,GF,5.38,-52.95,80.31,82,25,9.57
479,El Paujil,CO,1.57,-75.33,73.9,85,100,4.07
480,Komsomolskiy,UZ,40.43,71.72,41.0,65,0,1.34
481,Sattahip,TH,12.67,100.9,80.6,69,40,3.36
482,Nueva Guinea,NI,11.69,-84.46,75.31,89,100,8.48
483,Pisco,PE,-13.7,-76.22,64.4,77,0,18.34
484,Ambon,ID,-3.7,128.18,87.8,66,40,2.24
485,Kilindoni,TZ,-7.91,39.67,78.84,76,9,9.57
486,Lamongan,ID,-7.12,112.42,85.78,66,100,2.55
487,Maloy,NO,61.94,5.11,48.2,76,100,19.46
488,Andradas,BR,-22.07,-46.57,63.39,82,0,1.61
489,Egvekinot,RU,66.32,-179.17,23.22,93,0,3.51
490,Palmer,US,42.16,-72.33,46.99,70,90,5.82
491,Quatre Cocos,MU,-20.21,57.76,73.99,78,75,16.11
492,Nuevo Progreso,MX,23.17,-97.95,79.0,64,0,6.98
493,Ahuimanu,US,21.44,-157.84,82.4,74,40,8.05
494,Troitsko-Pechorsk,RU,62.71,56.2,21.78,98,100,2.98
495,Inirida,CO,3.87,-67.92,75.49,86,100,1.99
496,Juegang,CN,32.32,121.19,69.01,1,100,5.64
497,Wladyslawowo,PL,54.79,18.4,51.01,87,75,11.41
498,Westport,US,41.14,-73.36,51.8,57,90,10.29
499,Raton,US,36.9,-104.44,21.2,85,90,20.8
500,Tessalit,ML,20.2,1.01,76.77,17,0,8.25
501,Klaksvik,FO,62.23,-6.59,42.8,81,2,5.82
502,Port Hawkesbury,CA,45.62,-61.35,41.0,56,90,8.05
503,Mabaruma,GY,8.2,-59.78,75.24,91,98,2.89
504,Viedma,AR,-40.81,-63.0,52.84,41,0,1.79
505,Wagga Wagga,AU,-35.12,147.37,51.8,93,75,6.93
506,Razdolnoye,RU,43.55,131.92,51.8,43,0,2.24
507,Nasriganj,IN,25.05,84.33,66.9,63,0,3.85
508,Naze,JP,28.37,129.48,75.2,57,40,8.05
509,Mehamn,NO,71.04,27.85,32.7,92,100,21.25
510,Kamenka,RU,51.32,42.77,43.0,94,58,4.03
511,Tres Picos,MX,15.87,-93.53,80.98,71,96,3.91
512,Gondal,IN,21.97,70.8,75.2,64,20,2.24
513,Pinhao,BR,-25.7,-51.66,63.41,88,37,5.68
514,Tak,TH,16.58,98.83,73.4,94,75,1.32
515,Pontal Do Parana,BR,-25.65,-48.51,60.8,87,40,9.17
516,Khanpur,PK,28.65,70.66,65.98,27,0,9.06
517,Kijang,KR,35.24,129.21,59.0,51,0,4.7
518,Alvorada,BR,-12.48,-49.12,78.26,65,6,3.13
519,Tapejara,BR,-28.07,-52.01,68.18,64,19,8.03
520,Nemuro,JP,43.32,145.57,55.4,54,20,11.41
521,Esperance,AU,-33.87,121.9,64.4,48,0,23.04
522,Houma,US,29.6,-90.72,68.0,88,1,3.56
523,Chateau-Thierry,FR,49.05,3.4,48.99,90,100,4.0
524,Tuatapere,NZ,-46.13,167.68,55.0,56,98,8.01
525,Bonavista,CA,48.65,-53.11,39.0,70,90,20.0
526,Lakes Entrance,AU,-37.88,147.98,57.99,66,64,8.99
527,Banjar,ID,-8.19,114.97,86.0,74,40,3.36
528,Ramsar,IR,36.92,50.64,62.6,93,40,4.7
529,Artvin,TR,41.17,41.83,60.8,55,0,24.16
530,Spasskoye,RU,44.61,132.8,45.36,68,0,5.26
531,Campoverde,PE,-8.48,-74.81,81.91,66,100,1.32
532,Antofagasta,CL,-23.65,-70.4,57.2,76,75,9.17
533,Veraval,IN,20.9,70.37,80.4,61,1,9.75
534,Bardiyah,LY,31.76,25.09,68.81,77,0,9.75
535,Shakawe,BW,-18.37,21.85,71.49,28,0,5.53
536,Qiqihar,CN,47.34,123.97,43.68,62,100,5.7
537,Yinchuan,CN,38.47,106.27,49.95,43,16,3.47
538,Crasna,RO,47.17,22.9,54.0,100,93,0.58
539,Olafsvik,IS,64.89,-23.71,41.76,81,99,20.54
540,Matara,LK,5.95,80.54,77.76,85,13,6.4
541,Anadyr,RU,64.75,177.48,23.0,92,75,6.71
542,Shiraz,IR,29.6,52.54,44.6,48,0,3.02
543,Sao Lourenco Do Sul,BR,-31.37,-51.98,71.01,87,100,5.01
544,Sidi Ali,DZ,36.1,0.42,60.67,83,0,15.14
545,Serenje,ZM,-13.23,30.24,63.1,55,87,3.62
546,Batsfjord,NO,70.63,29.72,32.14,94,100,21.09
547,Bairiki,KI,1.33,172.98,86.0,66,20,6.93
548,Richards Bay,ZA,-28.78,32.04,69.51,81,100,10.42
549,Verkhnyaya Toyma,RU,62.23,45.0,24.22,98,83,3.67
550,Bonneville,FR,46.08,6.41,55.4,93,100,3.36
551,Kostino,RU,58.91,53.27,28.89,97,100,6.91
552,Mackay,AU,-21.15,149.2,90.0,69,90,8.05
553,Copiapo,CL,-27.37,-70.33,53.6,87,0,3.36
554,Tallahassee,US,30.44,-84.28,71.6,88,1,3.36
555,Acajutla,SV,13.59,-89.83,69.01,100,100,0.87
556,Elizabeth City,US,36.29,-76.25,69.8,88,90,8.05
557,Vallenar,CL,-28.57,-70.76,59.86,38,0,3.91
558,Shimoda,JP,34.67,138.95,68.0,64,75,12.75
559,Kyren,RU,51.68,102.14,19.35,83,27,4.29
560,Mountain Home,US,43.13,-115.69,35.6,27,1,6.93
561,Tual,ID,-5.67,132.75,82.36,71,100,7.72
562,Amparafaravola,MG,-17.58,48.22,61.61,79,65,3.69
563,Ulladulla,AU,-35.35,150.47,59.0,62,75,19.46
564,Ashtabula,US,41.7,-80.77,46.99,70,90,4.7
565,Broken Hill,AU,-31.95,141.43,57.2,50,0,13.87
566,Danbury,US,41.39,-73.45,48.2,61,90,8.05
567,Florianopolis,BR,-27.61,-48.5,71.6,94,75,5.82
568,Saint-Leu,RE,-21.15,55.28,73.4,72,0,3.36
569,Shenjiamen,CN,29.96,122.3,67.03,65,6,8.37
570,Lima,PE,-12.04,-77.03,62.6,82,0,12.75
571,Tabory,RU,58.52,64.55,28.71,98,100,3.58
572,Puerto Madryn,AR,-42.77,-65.04,61.95,31,0,12.01
573,Gushikawa,JP,26.35,127.87,77.0,61,1,10.29
574,Soyo,AO,-6.13,12.37,76.26,87,99,6.85
575,Mirnyy,RU,62.54,113.96,14.0,66,20,6.71
576,San Pedro,PH,14.35,121.02,82.4,78,90,20.8
577,Bathsheba,BB,13.22,-59.52,80.6,83,40,13.87
578,Newport,GB,51.59,-3.0,45.0,98,90,1.99
579,Gwadar,PK,25.12,62.33,73.8,28,0,11.48
580,Sochi,RU,43.6,39.73,66.0,50,4,2.24
581,Maraa,BR,-1.83,-65.37,75.69,89,15,0.83
582,Teguise,ES,29.06,-13.56,68.0,68,20,6.93
583,Pont-Saint-Esprit,FR,44.25,4.65,64.4,72,100,13.87
584,San Vicente,AR,-26.62,-54.13,74.32,62,3,3.98
585,Alice Springs,AU,-23.7,133.88,69.8,27,0,12.75
586,Banepa,NP,27.63,85.52,60.8,93,75,2.24
587,Faya,SA,18.39,42.45,59.0,22,0,2.08
588,Progreso,MX,21.28,-89.67,79.0,88,75,11.41
589,Mandalgovi,MN,45.76,106.27,23.43,90,3,16.91
590,Singleton,AU,-32.57,151.18,60.01,96,100,8.79
591,Halifax,CA,44.65,-63.57,39.0,78,6,6.44
592,La Asuncion,VE,11.03,-63.86,81.45,81,0,17.05
593,Wattegama,LK,6.8,81.48,73.4,100,20,1.12
594,Asfi,MA,32.3,-9.24,63.3,74,0,5.82
595,Manado,ID,1.49,124.85,87.8,62,20,3.36
596,Tateyama,JP,34.98,139.87,68.0,64,75,12.75
597,Arenal,CO,8.46,-73.94,77.74,82,100,2.42
598,San Bernardino,US,34.67,-116.17,70.0,45,1,28.86
599,Kamenica,DE,50.83,12.92,52.0,81,100,1.01
600,Caba,PH,16.43,120.34,83.79,68,100,3.04
601,Victor Harbor,AU,-35.57,138.62,59.0,66,31,1.01
602,Taksimo,RU,56.34,114.88,30.31,90,100,4.79
603,Grand Gaube,MU,-20.01,57.66,73.99,75,66,10.0
604,Enkoping,SE,59.64,17.08,51.8,93,100,5.82
605,Racale,IT,39.96,18.09,53.6,100,5,2.24
606,Pagudpud,PH,18.56,120.79,84.2,74,75,12.75
607,Bratsk,RU,56.13,101.61,17.6,92,40,3.96
608,Ucluelet,CA,48.93,-125.55,44.6,75,75,2.24
609,Sault Sainte Marie,CA,46.52,-84.33,35.6,93,90,3.98
610,Dhidhdhoo,MV,6.88,73.1,82.11,76,89,7.76
611,Giyani,ZA,-23.3,30.72,72.75,39,0,7.02
612,Virginia Beach,US,36.85,-75.98,68.0,97,100,1.01
613,Pulandian,CN,39.4,121.97,62.6,67,97,2.24
614,Kamaishi,JP,39.27,141.88,53.6,87,40,2.24
615,Saint-Paul,RE,-21.01,55.27,73.4,69,40,16.11
616,Upington,ZA,-28.45,21.26,75.2,22,0,8.21
617,Umm Lajj,SA,25.02,37.27,78.33,49,0,2.71
618,Swamimalai,IN,10.95,79.33,77.68,82,90,2.95
619,Turayf,SA,31.67,38.66,60.8,26,0,6.93
620,Marathon,US,44.9,-89.77,28.99,100,90,6.93
621,Dillon,US,34.42,-79.37,62.6,100,90,8.05
622,Galveston,US,29.37,-94.97,77.0,83,75,13.87
623,Hue,VN,16.47,107.6,77.0,83,40,2.24
624,Vohibinany,MG,-17.35,49.03,64.62,90,35,2.48
625,Segovia,ES,41.17,-4.0,46.0,80,70,12.62
626,Asmara,ER,15.33,38.93,56.05,67,100,4.83
627,Muisne,EC,0.6,-80.03,75.02,82,100,5.91
628,Bayevo,RU,53.28,80.77,39.58,83,100,15.57
629,Manoel Urbano,BR,-8.84,-69.26,72.66,97,100,1.97
630,Chabahar,IR,25.29,60.64,73.65,55,0,5.46
631,Kloulklubed,PW,7.04,134.26,86.0,70,75,4.7
632,Yarega,RU,63.44,53.58,21.45,98,87,3.24
633,Matai,TZ,-8.3,31.52,61.43,67,100,4.74
634,Sobolevo,RU,54.43,31.9,41.43,93,0,5.35
635,Shahr-E Kord,IR,32.33,50.86,32.0,75,0,0.34
636,Caraballeda,VE,10.61,-66.85,91.4,55,20,6.93
637,Maarianhamina,AX,60.1,19.93,51.8,93,75,17.22
638,Marawi,PH,8.0,124.29,82.0,80,100,3.0
639,Baherden,TM,38.44,57.43,59.86,31,0,3.09
640,Freeport,US,40.66,-73.58,52.0,76,90,5.82
641,Kutum,SD,14.2,24.67,67.24,29,0,7.27
642,Constitucion,CL,-35.33,-72.42,49.86,73,0,12.28
643,Beipiao,CN,41.79,120.78,51.85,47,100,4.16
644,Shingu,JP,33.73,135.98,66.2,52,40,9.17
645,Nome,US,64.5,-165.41,39.2,80,90,3.36
646,Binzhou,CN,37.37,118.02,63.82,31,0,3.56
647,Gizo,SB,-8.1,156.84,84.29,69,17,2.66
648,Henties Bay,NA,-22.12,14.28,57.99,91,40,3.0
649,Cairns,AU,-16.92,145.77,84.99,69,87,9.17
650,Turbat,PK,26.0,63.04,62.26,27,0,6.11
651,Mangaldai,IN,26.43,92.03,78.8,100,75,2.33
652,Moranbah,AU,-22.0,148.05,87.51,27,99,4.47
653,Shache,CN,38.42,77.24,42.53,52,100,5.35
654,Kiunga,PG,-6.12,141.29,84.97,77,71,1.88
655,Teyateyaneng,LS,-29.15,27.75,63.9,58,99,3.44
656,Booue,GA,-0.09,11.94,73.09,95,100,3.29
657,Inhambane,MZ,-23.86,35.38,71.74,90,8,2.64
658,Andenes,NO,69.31,16.12,37.4,93,75,13.87
659,Keetmanshoop,NA,-26.58,18.13,67.41,25,90,4.45
660,Turan,VN,16.07,108.22,78.8,83,75,1.12
661,Olinda,BR,-8.01,-34.86,80.6,74,20,4.7
662,Kasulu,TZ,-4.58,30.1,66.65,84,100,1.12
663,Valparaiso,CL,-33.04,-71.63,59.0,77,0,6.93
664,Lucapa,AO,-8.42,20.74,66.69,98,87,0.98
665,Yumen,CN,40.28,97.2,32.18,81,91,10.27
666,Disna,BY,55.57,28.2,43.16,93,71,6.33
667,Mae Hong Son,TH,19.3,97.97,71.6,100,20,2.24
668,Mlonggo,ID,-6.53,110.7,84.2,74,40,2.24
669,Shu,KZ,43.6,73.76,40.8,66,0,3.29
670,Quirinopolis,BR,-18.45,-50.45,75.69,79,100,4.85
671,Mwene-Ditu,CD,-7.0,23.45,65.55,99,100,4.03
672,San Quintin,MX,30.48,-115.95,66.69,68,93,14.29
673,Jerantut,MY,3.94,102.36,74.28,93,100,3.42
674,Luau,AO,-10.71,22.22,67.71,73,92,2.93
675,Pemba,MZ,-12.97,40.52,77.49,78,20,5.99
676,Vila Franca Do Campo,PT,37.72,-25.43,57.2,82,20,4.7
677,Tabou,CI,4.42,-7.35,77.34,90,13,7.11
678,Ithaca,US,42.44,-76.5,46.0,65,90,2.68
679,Daru,PG,-9.08,143.21,84.38,70,100,8.05
680,Half Moon Bay,US,37.46,-122.43,66.2,82,20,12.75
681,Bhalwal,PK,32.27,72.9,64.49,37,0,3.98
682,Derzhavinsk,KZ,51.1,66.32,48.43,78,100,24.54
683,Morant Bay,JM,17.88,-76.41,78.8,94,40,27.51
684,Olutanga,PH,7.31,122.85,80.89,78,100,6.02
685,Poya,NC,-21.35,165.15,84.0,46,0,5.03
686,Batagay-Alyta,RU,67.8,130.41,6.1,86,16,5.86
687,Abalak,RU,58.13,68.59,32.9,99,100,2.35
688,Rozkishne,UA,48.51,39.3,44.83,81,94,3.29
689,Kulu,TR,39.1,33.08,59.97,36,93,2.95
690,Alegrete,BR,-29.78,-55.79,74.53,71,0,9.13
691,Dwarka,IN,22.24,68.97,81.19,57,0,6.69
